{ "golfCourses": {
    "golfCourse": [
        {
	    "address": "3035 Novato Blvd.",
            "city": "Novato, CA",
	    "courseInfo": "",
	    "directions": "",
	    "holes": "18",
	    "imageURL": "",	
            "name": "Indian Valley Golf Course",
            "id": "1000",
            "info": "",
            "latitude": "38.121188",
            "longitude": "-122.635531",
	    "phone": "(415) 897-1118",
	    "isPublic": true,
	    "slope": "",
	    "thumbnailURL": "",
	    "woeid": "2462429"
        },
        {	
        "address": "500 Country Club Drive",
        "city": "Novato, CA",
	    "courseInfo": "",
	    "directions": "",
	    "holes": "18",
	    "imageURL": "",	
            "name": "Marin Country Club",
            "id": "1001",
            "info": "",
            "latitude": "38.063466",
            "longitude": "-122.566373",
	    "phone": "(415) 382-6707",
	    "isPublic": false,
	    "slope": "",
	    "thumbnailURL": "",
	    "woeid": "2462429"
        },
        {
        "address": "350 Smith Ranch Road",
        "city": "San Rafael, CA",
	    "courseInfo": "",
	    "directions": "",
	    "holes": "9",
	    "imageURL": "",	
            "name": "McInnis Golf Course",
            "id": "1002",
            "info": "",
            "latitude": "38.021185",
            "longitude": "-122.519681",
	    "phone": "(415) 492-1800",
	    "isPublic": true,
	    "slope": "",
	    "thumbnailURL": "",
	    "woeid": "2488201"
        },
        {
        "address": "1001 Bolinas Road",
        "city": "Fairfax, CA",
	    "courseInfo": "",
	    "directions": "",
	    "holes": "18",
	    "imageURL": "",	
            "name": "Meadow Club",
            "id": "1003",
            "info": "",
            "latitude": "37.969694",
            "longitude": "-122.615082",
	    "phone": "(415) 456-9393",
	    "isPublic": false,
	    "slope": "",
	    "thumbnailURL": "",
	    "woeid": "2401349"
        },
        {
        "address": "280 Buena Vista Avenue",
        "city": "Mill Valley, CA",
	    "courseInfo": "",
	    "directions": "",
	    "holes": "9",
	    "imageURL": "",	
            "name": "Mill Valley Golf Course",
            "id": "1004",
            "info": "",
            "latitude": "37.912936",
            "longitude": "-122.534873",
	    "phone": "(415) 388-9982",
	    "isPublic": true,
	    "slope": "",
	    "thumbnailURL": "",
	    "woeid": "2451166"
        },
        {
        "address": "333 Biscayne Drive",
        "city": "San Rafael, CA",
	    "courseInfo": "",
	    "directions": "",
	    "holes": "18",
	    "imageURL": "",	
            "name": "Peacock Gap Golf Club",
            "id": "1005",
            "info": "",
            "latitude": "37.99459",
            "longitude": "-122.465479",
	    "phone": "(415) 453-4940",
	    "isPublic": true,
	    "slope": "",
	    "thumbnailURL": "",
	    "woeid": "2488201"
        },
        {
        "address": "5800 Sir Francis Drake Blvd.",
        "city": "San Geronimo, CA",
	    "courseInfo": "",
	    "directions": "",
	    "holes": "18",
	    "imageURL": "",	
            "name": "San Geronimo Golf Course",
            "id": "1006",
            "info": "",
            "latitude": "38.016249",
            "longitude": "-122.660186",
	    "phone": "(415) 488-4030",
	    "isPublic": true,
	    "slope": "",
	    "thumbnailURL": "",
	    "woeid": "2488016"
        },
        {
        "address": "9 Stonetree Lane",
        "city": "Novato, CA",
	    "courseInfo": "",
	    "directions": "",
	    "holes": "18",
	    "imageURL": "",	
            "name": "Stone Tree Golf Club",
            "id": "1007",
            "info": "",
            "latitude": "38.103714",
            "longitude": "-122.506592",
	    "phone": "(415) 209-6090",
	    "isPublic": true,
	    "slope": "",
	    "thumbnailURL": "",
	    "woeid": "2462429"
        }
    ]
    }
}