{ "golfCourses": {
    "golfCourse": [
        {
	    "address": "1600 Aetna Springs Rd",
        "city": "Pope Valley, CA",
	    "courseInfo": "",
	    "directions": "",
	    "holes": "9",
	    "imageURL": "",	
            "name": "Aetna Springs Golf Course",
            "id": "5000",
            "info": "",
            "latitude": "38.654099",
            "longitude": "-122.482193",
	    "phone": "(707) 965-2115",
	    "isPublic": true,
	    "slope": "",
	    "thumbnailURL": "",
	    "woeid": "2352187"
        },
        {	
	    "address": "555 Jameson Canyon Road",
        "city": "Napa Valley, CA",
	    "courseInfo": "",
	    "directions": "",
	    "holes": "18",
	    "imageURL": "",	
            "name": "Chardonnay Golf Course",
            "id": "5001",
            "info": "",
            "latitude": "38.220058",
            "longitude": "-122.234307",
	    "phone": "(707) 257-1900",
	    "isPublic": true,
	    "slope": "",
	    "thumbnailURL": "",
	    "woeid": "2456984"
        },
        {
	    "address": "560 S. Kelly Rd",
            "city": "American Canyon, CA",
	    "courseInfo": "",
	    "directions": "",
	    "holes": "18",
	    "imageURL": "",	
            "name": "Eagle Vines Golf Course",
            "id": "5002",
            "info": "",
            "latitude": "38.220058",
            "longitude": "-122.234207",
	    "phone": "(707) 257-4470",
	    "isPublic": true,
	    "slope": "",
	    "thumbnailURL": "",
	    "woeid": "2354251"
        },
        {
	    "address": "900 Meadowood Lane",
            "city": "St. Helena, CA",
	    "courseInfo": "",
	    "directions": "",
	    "holes": "9",
	    "imageURL": "",	
            "name": "Meadowood Golf Course",
            "id": "5003",
            "info": "",
            "latitude": "38.522629",
            "longitude": "-122.466591",
	    "phone": "(707) 531-4788",
	    "isPublic": true,
	    "slope": "",
	    "thumbnailURL": "",
	    "woeid": "2486809"
        },
        {
	    "address": "2025 Grant Street",
            "city": "Calistoga, CA",
	    "courseInfo": "",
	    "directions": "",
	    "holes": "18",
	    "imageURL": "",	
            "name": "Mount St. Helena Golf Course",
            "id": "5004",
            "info": "",
            "latitude": "38.522629",
            "longitude": "-122.584129",
	    "phone": "(707) 942-9966",
	    "isPublic": true,
	    "slope": "",
	    "thumbnailURL": "",
	    "woeid": "2373317"
        },
        {
	    "address": "2295 Streblow Dr",
            "city": "Napa, CA",
	    "courseInfo": "",
	    "directions": "",
	    "holes": "18",
	    "imageURL": "",	
            "name": "Napa Golf Course",
            "id": "5005",
            "info": "",
            "latitude": "38.26588",
            "longitude": "-122.27812",
	    "phone": "(707) 255-4333",
	    "isPublic": true,
	    "slope": "",
	    "thumbnailURL": "",
	    "woeid": "2456984"
        },
        {
	    "address": "3385 Hagen Road",
            "city": "Napa, CA",
	    "courseInfo": "",
	    "directions": "",
	    "holes": "18",
	    "imageURL": "",	
            "name": "Napa Valley Golf Club",
            "id": "5006",
            "info": "",
            "latitude": "38.322198",
            "longitude": "-122.23938",
	    "phone": "(707) 252-1111",
	    "isPublic": true,
	    "slope": "",
	    "thumbnailURL": "",
	    "woeid": "2456984"
        },
        {
	    "address": "1600 Atlas Peak Road",
            "city": "Napa, CA",
	    "courseInfo": "",
	    "directions": "",
	    "holes": "36",
	    "imageURL": "",	
            "name": "Silverado Resort Golf",
            "id": "5008",
            "info": "",
            "latitude": "38.34812",
            "longitude": "-122.266357",
	    "phone": "(707) 257-5640",
	    "isPublic": true,
	    "slope": "",
	    "thumbnailURL": "",
	    "woeid": "2456984"
        },
        {
	    "address": "7901 Solano Avenue",
            "city": "Yountville, CA",
	    "courseInfo": "",
	    "directions": "",
	    "holes": "9",
	    "imageURL": "",	
            "name": "Vintners Golf Club",
            "id": "5008",
            "info": "",
            "latitude": "38.396717",
            "longitude": "-122.359535",
	    "phone": "(707) 944-1992",
	    "isPublic": true,
	    "slope": "",
	    "thumbnailURL": "",
	    "woeid": "2456984"
        },
        {
	    "address": "1129 Dealy Lane",
            "city": "Napa, CA",
	    "courseInfo": "",
	    "directions": "",
	    "holes": "18",
	    "imageURL": "",	
            "name": "Vinyard Knolls Golf Course",
            "id": "5009",
            "info": "",
            "latitude": "38.26157",
            "longitude": "-122.344299",
	    "phone": "",
	    "isPublic": false,
	    "slope": "",
	    "thumbnailURL": "",
	    "woeid": "2456984"
        }
    ]
    }
}