{ "golfCourses": {
    "golfCourse": [
        {
	    "address": "2100 Sunnydale Avenue",
            "city": "San Francisco, CA",
	    "courseInfo": "",
	    "directions": "",
	    "holes": "9",
	    "imageURL": "",	
            "name": "Gleneagles International Golf Course",
            "id": "3000",
            "info": "",
            "latitude": "37.714377",
            "longitude": "-122.424393",
	    "phone": "(415) 587-2425",
	    "isPublic": true,
	    "slope": "",
	    "thumbnailURL": "",
	    "woeid": "2487956"
        },
        {	
	    "address": "970 47th Ave",
            "city": "San Francisco, CA",
	    "courseInfo": "",
	    "directions": "",
	    "holes": "9",
	    "imageURL": "",	
            "name": "Golden Gate Park Golf Course",
            "id": "3001",
            "info": "",
            "latitude": "37.769629",
            "longitude": "-122.508053",
	    "phone": "(415) 664-4690",
	    "isPublic": true,
	    "slope": "",
	    "thumbnailURL": "",
	    "woeid": "2487956"
        },
        {
	    "address": "99 Harding Road",
            "city": "San Francisco, CA",
	    "courseInfo": "",
	    "directions": "",
	    "holes": "18",
	    "imageURL": "",	
            "name": "Harding Park Golf Course",
            "id": "3002",
            "info": "",
            "latitude": "37.724107",
            "longitude": "-122.49488",
	    "phone": "(415) 664-4690",
	    "isPublic": true,
	    "slope": "",
	    "thumbnailURL": "",
	    "woeid": "2487956"
        },
        {
	    "address": "300 34th Avenue",
            "city": "San Francisco, CA",
	    "courseInfo": "",
	    "directions": "",
	    "holes": "18",
	    "imageURL": "",	
            "name": "Lincoln Park Golf Course",
            "id": "3003",
            "info": "",
            "latitude": "37.7842171",
            "longitude": "-122.494588",
	    "phone": "(415) 664-4690",
	    "isPublic": true,
	    "slope": "",
	    "thumbnailURL": "",
	    "woeid": "2487956"
        },
        {
	    "address": "599 Skyline Blvd.",
            "city": "Daly City, CA",
	    "courseInfo": "",
	    "directions": "",
	    "holes": "18",
	    "imageURL": "",	
            "name": "Olympic Club",
            "id": "3004",
            "info": "",
            "latitude": "37.708821",
            "longitude": "-122.494931",
	    "phone": "(415) 664-4690",
	    "isPublic": false,
	    "slope": "",
	    "thumbnailURL": "",
	    "woeid": "2389087"
        },
        {
	    "address": "300 Finley Road, Arguello Gate",
            "city": "San Francisco, CA",
	    "courseInfo": "",
	    "directions": "",
	    "holes": "18",
	    "imageURL": "",	
            "name": "Presidio Golf Course",
            "id": "3005",
            "info": "",
            "latitude": "37.790761",
            "longitude": "-122.459881",
	    "phone": "(415) 664-4690",
	    "isPublic": true,
	    "slope": "",
	    "thumbnailURL": "",
	    "woeid": "2487956"
        },
        {
	    "address": "1310 Junipero Serra Blvd",
            "city": "San Francisco, CA",
	    "courseInfo": "",
	    "directions": "",
	    "holes": "18",
	    "imageURL": "",	
            "name": "San Francisco Golf Club",
            "id": "3006",
            "info": "",
            "latitude": "37.711273",
            "longitude": "-122.471343",
	    "phone": "(415) 664-4690",
	    "isPublic": false,
	    "slope": "",
	    "thumbnailURL": "",
	    "woeid": "2487956"
        },
	{	
	    "address": "844 West Orange Avenue",
            "city": "South San Francisco",
	    "courseInfo": "",
	    "directions": "",
	    "holes": "18",
	    "imageURL": "",	
            "name": "California Golf Club",
            "id": "3007",
            "info": "",
            "latitude": "37.652947",
            "longitude": "-122.436366",
	    "phone": "(650) 589-0144",
	    "isPublic": false,
	    "slope": "",
	    "thumbnailURL": "",
	    "woeid": "2496728"
        },
	{
	    "address": "2300 Junipero Serra Blvd.",
            "city": "Daly City",
	    "courseInfo": "",
	    "directions": "",
	    "holes": "18",
	    "imageURL": "",	
            "name": "Lake Merced Golf & Country Club",
            "id": "3008",
            "info": "",
            "latitude": "37.695659",
            "longitude": "-122.471648",
	    "phone": "(650) 755-2239",
	    "isPublic": false,
	    "slope": "",
	    "thumbnailURL": "",
	    "woeid": "2389087"
        }
    ]
    }
}