{ "golfCourses": {
    "golfCourse": [
        {
	    "address": "80 New Place Road",
            "city": "Hillsborough, CA",
	    "courseInfo": "",
	    "directions": "",
	    "holes": "18",
	    "imageURL": "",	
            "name": "Burlingame Country Club",
            "id": "4000",
            "info": "",
            "latitude": "37.568214",
            "longitude": "-122.369115",
	    "phone": "(650) 342-0750",
	    "isPublic": false,
	    "slope": "",
	    "thumbnailURL": "",
	    "woeid": "2422103"
        },
        {	
	    "address": "6650 Golf Course Drive",
            "city": "Burlingame, CA",
	    "courseInfo": "",
	    "directions": "",
	    "holes": "18",
	    "imageURL": "",	
            "name": "Crystal Springs Golf Course",
            "id": "4001",
            "info": "",
            "latitude": "37.557985",
            "longitude": "-122.382059",
	    "phone": "(650) 342-0603",
	    "isPublic": true,
	    "slope": "",
	    "thumbnailURL": "",
	    "woeid": "2372044"
        },
        {
	    "address": "2001 Hillside Blvd.",
            "city": "Colma, CA",
	    "courseInfo": "",
	    "directions": "",
	    "holes": "9",
	    "imageURL": "",	
            "name": "Cypress Golf Course",
            "id": "4002",
            "info": "",
            "latitude": "37.68081",
            "longitude": "-122.447484",
	    "phone": "(650) 992-5155",
	    "isPublic": true,
	    "slope": "",
	    "thumbnailURL": "",
	    "woeid": "2383238"
        },
        {
	    "address": "938 Wilmington Way",
            "city": "Redwood City, CA",
	    "courseInfo": "",
	    "directions": "",
	    "holes": "9",
	    "imageURL": "",	
            "name": "Emerald Hills Golf Course",
            "id": "4003",
            "info": "",
            "latitude": "37.455118",
            "longitude": "-122.265564",
	    "phone": "(650) 368-7820",
	    "isPublic": true,
	    "slope": "",
	    "thumbnailURL": "",
	    "woeid": "2479714"
        },
        {
	    "address": "500 Ludeman Lane",
            "city": "Millbrae, CA",
	    "courseInfo": "",
	    "directions": "",
	    "holes": "18",
	    "imageURL": "",	
            "name": "Green Hills Country Club",
            "id": "4004",
            "info": "",
            "latitude": "37.605199",
            "longitude": "-122.406439",
	    "phone": "(650) 583-0882",
	    "isPublic": false,
	    "slope": "",
	    "thumbnailURL": "",
	    "woeid": "2451206"
        },
        {
	    "address": "2000 Fairway Drive",
            "city": "Half Moon Bay, CA",
	    "courseInfo": "",
	    "directions": "",
	    "holes": "18",
	    "imageURL": "",	
            "name": "Half Moon Bay Golf Links",
            "id": "4005",
            "info": "",
            "latitude": "37.435045",
            "longitude": "-122.429441",
	    "phone": "(650) 726-4438",
	    "isPublic": true,
	    "slope": "",
	    "thumbnailURL": "",
	    "woeid": "2416227"
        },
        {
	    "address": "2401 E 3rd Ave.",
            "city": "Foster City, CA",
	    "courseInfo": "",
	    "directions": "",
	    "holes": "9",
	    "imageURL": "",	
            "name": "Mariners Point Golf Links",
            "id": "4006",
            "info": "",
            "latitude": "37.572143",
            "longitude": "-122.284575",
	    "phone": "(650) 573-7888",
	    "isPublic": true,
	    "slope": "",
	    "thumbnailURL": "",
	    "woeid": "2406170"
        },
        {
	    "address": "701 Madera Drive",
            "city": "San Mateo, CA",
	    "courseInfo": "",
	    "directions": "",
	    "holes": "18",
	    "imageURL": "",	
            "name": "Penisula Golf Course",
            "id": "4007",
            "info": "",
            "latitude": "37.541816",
            "longitude": "-122.320732",
	    "phone": "(650) 638-2239",
	    "isPublic": false,
	    "slope": "",
	    "thumbnailURL": "",
	    "woeid": "2488142"
        },
        {
	    "address": "2300 Woodside Road",
            "city": "Woodside",
	    "courseInfo": "",
	    "directions": "",
	    "holes": "18",
	    "imageURL": "",	
            "name": "Menlo Country Club",
            "id": "4008",
            "info": "",
            "latitude": "37.445025",
            "longitude": "-122.240102",
	    "phone": "(650) 366-9910",
	    "isPublic": false,
	    "slope": "",
	    "thumbnailURL": "",
	    "woeid": "2523694"
        },
        {
	    "address": "1700 Coyote Point Drive",
            "city": "San Mateo, CA",
	    "courseInfo": "",
	    "directions": "",
	    "holes": "18",
	    "imageURL": "",	
            "name": "Poplar Creek Golf Course",
            "id": "4009",
            "info": "",
            "latitude": "37.541816",
            "longitude": "-122.320732",
	    "phone": "(650) 522-4653",
	    "isPublic": true,
	    "slope": "",
	    "thumbnailURL": "",
	    "woeid": "2488142"
        },
        {
	    "address": "2900 Sand Hill Road",
            "city": "Menlo Park, CA",
	    "courseInfo": "",
	    "directions": "",
	    "holes": "18",
	    "imageURL": "",	
            "name": "Sharon Heights Golf Course",
            "id": "4010",
            "info": "",
            "latitude": "37.541816",
            "longitude": "-122.320732",
	    "phone": "(650) 854-6429",
	    "isPublic": false,
	    "slope": "",
	    "thumbnailURL": "",
	    "woeid": "2449435"
        },
        {
	    "address": "269 Angelita Ave",
            "city": "Pacifica, CA",
	    "courseInfo": "",
	    "directions": "",
	    "holes": "18",
	    "imageURL": "",	
            "name": "Sharp Park Golf Course",
            "id": "40011",
            "info": "",
            "latitude": "37.622571",
            "longitude": "-122.484302",
	    "phone": "",
	    "isPublic": true,
	    "slope": "",
	    "thumbnailURL": "",
	    "woeid": "2467340"
        }
    ]
    }
}