{ "golfCourses": {
    "golfCourse": [
        {
	    "address": "1901 Frates Road",
        "city": "Petaluma, CA",
	    "courseInfo": "",
	    "directions": "",
	    "holes": "18",
	    "imageURL": "",	
            "name": "Adobe Creek Golf Club",
            "id": "2000",
            "info": "",
            "latitude": "38.245326",
            "longitude": "-122.586608",
	    "phone": "(707) 765-3000",
	    "isPublic": true,
	    "slope": "",
        "thumbnailURL": "",
        "woeid": "2470874"
        },
        {	
        "address": "Bennett Valley Road",
        "city": "Santa Rosa, CA",
	    "courseInfo": "",
	    "directions": "",
	    "holes": "18",
	    "imageURL": "",	
            "name": "Bennett Valley Golf Course",
            "id": "2001",
            "info": "",
            "latitude": "38.423470",
            "longitude": "-122.659950",
	    "phone": "(707) 528-3673",
	    "isPublic": true,
	    "slope": "",
	    "thumbnailURL": "",
        "woeid": "2488916"
        },
        {
        "address": "21301 Heron Drive",
        "city": "Bodega Bay, CA",
	    "courseInfo": "",
	    "directions": "",
	    "holes": "18",
	    "imageURL": "",	
            "name": "Bodega Harbour Golf Links",
            "id": "2002",
            "info": "",
            "latitude": "38.313377",
            "longitude": "-123.016663",
	    "phone": "(707) 875-3538",
	    "isPublic": true,
	    "slope": "",
	    "thumbnailURL": "",
        "woeid": "2366234"
        },
        {
        "address": "1350 Bennett Valley Road",
        "city": "Santa Rosa, CA",
	    "courseInfo": "",
	    "directions": "",
	    "holes": "9",
	    "imageURL": "",	
            "name": "Fairgrounds Golf Center",
            "id": "2003",
            "info": "",
            "latitude": "38.429169",
            "longitude": "-122.701085",
	    "phone": "(707) 577-0755",
	    "isPublic": true,
	    "slope": "",
	    "thumbnailURL": "",
        "woeid": "2488916"
        },
        {
        "address": "1525 Fountaingrove Pkwy",
        "city": "Santa Rosa, CA",
	    "courseInfo": "",
	    "directions": "",
	    "holes": "18",
	    "imageURL": "",	
            "name": "Fountaingrove Club",
            "id": "2004",
            "info": "",
            "latitude": "38.487340",
            "longitude": "-122.710354",
	    "phone": "(707) 521-3214",
	    "isPublic": true,
	    "slope": "",
	    "thumbnailURL": "",
        "woeid": "2488916"
        },
        {
        "address": "100 Golf Course Drive",
        "city": "Rohnert Park, CA",
	    "courseInfo": "",
	    "directions": "",
	    "holes": "36",
	    "imageURL": "",	
            "name": "Foxtail Golf Club, North and South",
            "id": "2005",
            "info": "",
            "latitude": "38.360907",
            "longitude": "-122.707093",
	    "phone": "(707) 584-7766",
	    "isPublic": true,
	    "slope": "",
	    "thumbnailURL": "",
        "woeid": "2483970"
        },
        {
        "address": "5000 Stage Gulch Road",
        "city": "Sonoma, CA",
	    "courseInfo": "",
	    "directions": "",
	    "holes": "9",
	    "imageURL": "",	
            "name": "Los Arroyos Golf Course",
            "id": "2006",
            "info": "",
            "latitude": "38.253751",
            "longitude": "-122.485843",
	    "phone": "(707) 938-8835",
	    "isPublic": true,
	    "slope": "",
	    "thumbnailURL": "",
        "woeid": "2495775"
        },
        {
            "address": "525 Mayacama Club Drive",
            "city": "Santa Rosa, CA",
	    "courseInfo": "",
	    "directions": "",
	    "holes": "18",
	    "imageURL": "",	
            "name": "Mayacama Golf Course",
            "id": "2007",
            "info": "",
            "latitude": "38.527957",
            "longitude": "-122.733915",
	    "phone": "(707) 543-8040",
	    "isPublic": false,
	    "slope": "",
	    "thumbnailURL": "",
        "woeid": "2488916"
        },
        {
            "address": "19400 Highway 116",
            "city": "Monte Rio, CA",
	    "courseInfo": "",
	    "directions": "",
	    "holes": "9",
	    "imageURL": "",	
            "name": "Northwood Golf Course",
            "id": "2008",
            "info": "",
            "latitude": "38.478168",
            "longitude": "-122.994454",
	    "phone": "(707) 865-1116",
	    "isPublic": true,
	    "slope": "",
	    "thumbnailURL": "",
        "woeid": "2453208"
        },
        {
           "address": "565 Oak Vista Drive",
           "city": "Santa Rosa, CA",
	    "courseInfo": "",
	    "directions": "",
	    "holes": "18",
	    "imageURL": "",	
           "name": "Oakmont Golf Club",
           "id": "2009",
           "info": "",
           "latitude": "38.426832",
           "longitude": "-122.583582",
	    "phone": "(707) 538-2454",
	    "isPublic": true,
	    "slope": "",
	    "thumbnailURL": "",
        "woeid": "2488916"
        },
        {
           "address": "1500 Country Club Drive",
           "city": "Petaluma, CA",
	    "courseInfo": "",
	    "directions": "",
	    "holes": "9",
	    "imageURL": "",	
           "name": "Petaluma Golf and Country Club",
           "id": "2010",
           "info": "",
           "latitude": "38.220094",
           "longitude": "-122.614889",
	    "phone": "(707) 762-7041",
	    "isPublic": false,
	    "slope": "",
	    "thumbnailURL": "",
        "woeid": "2470874"
        },
        {
           "address": "2301 East Washington Street",
           "city": "Petaluma, CA",
	    "courseInfo": "",
	    "directions": "",
	    "holes": "18",
	    "imageURL": "",	
           "name": "Rooster Run Golf Course",
           "id": "2011",
           "info": "",
           "latitude": "38.263625",
           "longitude": "-122.613623",
	    "phone": "(707) 778-1211",
	    "isPublic": true,
	    "slope": "",
	    "thumbnailURL": "",
        "woeid": "2470874"
        },
        {
           "address": "5110 Oak Meadow Drive",
           "city": "Santa Rosa, CA",
	    "courseInfo": "",
	    "directions": "",
	    "holes": "18",
	    "imageURL": "",	
           "name": "Santa Rosa Golf & Country Club",
           "id": "2012",
           "info": "",
           "latitude": "38.435573",
           "longitude": "-122.801228",
	    "phone": "(707) 546-6617",
	    "isPublic": false,
	    "slope": "",
	    "thumbnailURL": "",
        "woeid": "2488916"
        },
        {
           "address": "42000 Highway 1",
           "city": "Sea Ranch, CA",
	    "courseInfo": "",
	    "directions": "",
	    "holes": "18",
	    "imageURL": "",	
           "name": "Sea Ranch Golf Links",
           "id": "2013",
           "info": "",
           "latitude": "38.753012",
           "longitude": "-123.51594",
	    "phone": "(707) 785-2468",
	    "isPublic": true,
	    "slope": "",
	    "thumbnailURL": "",
        "woeid": "2490206"
        },
        {
           "address": "2881 Scotts Right of Way",
           "city": "Sebastopol, CA",
	    "courseInfo": "",
	    "directions": "",
	    "holes": "9",
	    "imageURL": "",	
           "name": "Sebastopol Golf Course",
           "id": "2014",
           "info": "",
           "latitude": "38.435001",
           "longitude": "-122.847984",
	    "phone": "(707) 823-9852",
	    "isPublic": true,
	    "slope": "",
	    "thumbnailURL": "",
        "woeid": "2490422"
        },
        {
           "address": "17700 Arnold Drive",
           "city": "Sonoma, CA",
	    "courseInfo": "",
	    "directions": "",
	    "holes": "18",
	    "imageURL": "",	
           "name": "Sonoma Mission Inn Golf & Country Club",
           "id": "2015",
           "info": "",
           "latitude": "38.314016",
           "longitude": "-122.500509",
	    "phone": "(707) 996-0300",
	    "isPublic": true,
	    "slope": "",
	    "thumbnailURL": "",
        "woeid": "2495775"
        },
        {
           "address": "927 South Fitch Mountain Road",
           "city": "Healdsburg, CA",
	    "courseInfo": "",
	    "directions": "",
	    "holes": "9",
	    "imageURL": "",	
           "name": "Tayman Park Golf Course",
           "id": "2016",
           "info": "",
           "latitude": "38.614766",
           "longitude": "-122.854904",
	    "phone": "(707) 433-4275",
	    "isPublic": true,
	    "slope": "",
	    "thumbnailURL": "",
        "woeid": "2419354"
        },
        {
           "address": "5001 Carriage Lane",
           "city": "Santa Rosa, CA",
	    "courseInfo": "",
	    "directions": "",
	    "holes": "9",
	    "imageURL": "",	
           "name": "Wikiup Golf Course",
           "id": "2017",
           "info": "",
           "latitude": "38.614766",
           "longitude": "-122.854904",
	    "phone": "(707) 546-8787",
	    "isPublic": true,
	    "slope": "",
	    "thumbnailURL": "",
        "woeid": "2488916"
        },
        {
           "address": "6555 Skylane Blvd.",
           "city": "Windsor, CA",
	    "courseInfo": "",
	    "directions": "",
	    "holes": "18",
	    "imageURL": "",	
           "name": "Windsor Golf Course",
           "id": "2018",
           "info": "8.525993",
           "latitude": "38.529435",
           "longitude": "-122.80067",
	    "phone": "(707) 838-7888",
	    "isPublic": true,
	    "slope": "",
	    "thumbnailURL": "",
        "woeid": "2521863"
        }
    ]
    }
}